Location,Number,Latitude,Longitude
AN DER SPANDAUER BRÜCKE / HACKESCHER MARKT / ROSENTHALER STR.,3,52.524577,13.40324499999997
AUGUSTSTR.,1,52.52706629999999,13.397015199999942
BRUNNENSTR.,2,52.5390431,13.395326899999986
CHAUSSEESTR.,4,52.5332587,13.379740500000025
FRIEDRICHSTR. / REINHARDTSTR.,1,52.52370699999999,13.386834000000022
GARTENSTR. / TORSTR. / KLEINE HAMBURGER STR.,1,52.5278271,13.395368800000028
INVALIDENSTR.,3,52.5291873,13.378482299999973
ORANIENBURGER STR.,1,52.5246472,13.394239299999981
ORANIENBURGER STR. / TUCHOLSKYSTR.,1,52.5255023,13.393189600000028
REINHARDTSTR.,3,52.5229722,13.382029999999986
ROSENTHALER STR.,4,52.5269114,13.403415499999937
TORSTR.,1,52.5295851,13.401165200000037
TORSTR. / ALTE SCHÖNHAUSER STR. / SCHÖNHAUSER ALLEE / ROSA-LUXEMBURG-
STR.,1,52.5252582,13.410590599999978
TORSTR. / NOVALISSTR.,1,52.528478,13.388635399999998
ALBRECHTSTR.,1,52.5227741,13.384113100000036
AM ZWIRNGRABEN / AN DER SPANDAUER BRÜCKE / DIRCKSENSTR.,1,52.5212924,13.41221500000006
AUGUSTSTR. / TUCHOLSKYSTR.,1,52.5255023,13.393189600000028
CHAUSSEESTR. / SCHLEGELSTR.,1,52.5301768,13.386810200000014
GIPSSTR. / GORMANNSTR. / ROSENTHALER STR. / WEINMEISTERSTR.,3,52.5254626,13.405072099999984
TORSTR. / STRAßBURGER STR. / ZOLASTR.,1,52.5279831,13.41161820000002
LINIENSTR.,1,52.52896330000001,13.4018509
ANKLAMER STR.,1,52.5347316,13.397019
GARTENSTR. / INVALIDENSTR.,1,52.5291873,13.378482299999973
WEINMEISTERSTR.,1,52.5254626,13.405072099999984
BRUNNENSTR. / TORSTR. / ROSENTHALER PLATZ / ROSENTHALER STR. / 
WEINBERGSWEG,1,52.5315016,13.402723599999945
CHAUSSEESTR. / IDA-VON-ARNIM-STR. / WÖHLERTSTR.,1,52.5365155,13.377797600000008
HESSISCHE STR.,1,52.5287781,13.380231399999957
PFLUGSTR.,1,52.5368593,13.379422900000009
FRIEDRICHSTR. / ORANIENBURGER STR.,2,52.5246472,13.394239299999981
BRUNNENSTR. / RHEINSBERGER STR.,1,52.5377665,13.399817600000006
HUGO-PREUß-BRÜCKE,1,52.5235677,13.372157099999981
ALEXANDERPLATZ,1,52.5219184,13.413214700000026
ALEXANDERSTR.,2,52.5196362,13.416558399999985
DIRCKSENSTR. / KARL-LIEBKNECHT-STR.,1,52.52260399999999,13.409727900000007
FRIEDRICHSTR.,2,52.51768449999999,13.388711999999941
FRIEDRICHSTR. / FRANZÖSISCHE STR.,1,52.5306438,13.38306829999999
FRIEDRICHSTR. / UNTER DEN LINDEN,2,52.516996,13.388875999999982
FRIEDRICHSTR. / ZIMMERSTR.,1,52.5078243,13.392301699999962
GLINKASTR. / NEUSTÄDTISCHE KIRCHSTR. / UNTER DEN LINDEN,2,52.5171845,13.38908850000007
GRUNERSTR.,4,52.5195873,13.412897899999962
GRUNERSTR. / KLOSTERSTR.,2,52.5168098,13.412407700000017
HOLZMARKTSTR.,2,52.5144384,13.420987999999966
JANNOWITZBRÜCKE / BRÜCKENSTR. / MÄRKISCHES UFER,1,52.5138194,13.412855100000002
KARL-LIEBKNECHT-STR.,5,52.52260399999999,13.409727900000007
KARL-LIEBKNECHT-STR. / SPANDAUER STR.,1,52.5191963,13.406104400000004
MARKGRAFENSTR. / FRANZÖSISCHE STR.,1,52.5306438,13.38306829999999
OTTO-BRAUN-STR. / MOLLSTR.,3,52.525183,13.419944999999984
STRESEMANNSTR.,1,52.5074683,13.378422699999987
TORSTR. / KARL-LIEBKNECHT-STR. / MOLLSTR. / PRENZLAUER ALLEE,1,52.5269588,13.415822100000014
UNTER DEN LINDEN,2,52.5171845,13.38908850000007
WILHELMSTR.,2,52.51312249999999,13.382564499999944
AM LUSTGARTEN / KARL-LIEBKNECHT-STR. / LUSTGARTEN,1,52.51858989999999,13.399687500000027
BRÜCKENSTR.,1,52.5124521,13.417190600000026
DIRCKSENSTR.,1,52.5212924,13.41221500000006
FRIEDRICHSTR. / LEIPZIGER STR.,1,52.5104105,13.390803499999947
KÖPENICKER STR. / BRÜCKENSTR. / HEINRICH-HEINE-STR.,1,52.5079941,13.414129799999955
MOLLSTR.,1,52.5248399,13.421229799999992
ROßSTRAßENBRÜCKE / MÄRKISCHES UFER / NEUE ROßSTR.,1,52.5306438,13.38306829999999
DOROTHEENSTR. / FRIEDRICHSTR.,1,52.51768449999999,13.388711999999941
LEIPZIGER PLATZ,1,52.5096267,13.378007900000057
ALEXANDERSTR. / HOLZMARKTSTR. / STRALAUER STR.,2,52.5157549,13.413565000000062
JANNOWITZBRÜCKE,1,52.5139332,13.417788100000053
KÖPENICKER STR.,2,52.5094593,13.42091490000007
KÖPENICKER STR. / MICHAELKIRCHSTR.,1,52.50686529999999,13.42014549999999
MARKGRAFENSTR. / LEIPZIGER STR.,1,52.5104105,13.390803499999947
WALLSTR.,1,52.5122039,13.409681200000023
MOHRENSTR.,1,52.5120957,13.389921400000048
MARKGRAFENSTR. / JÄGERSTR.,1,52.5139983,13.391740600000048
ADALBERTSTR. / MELCHIORSTR.,1,52.5069017,13.423291199999994
BRÜCKENSTR. / RUNGESTR.,2,52.5124883,13.416383499999938
SCHLOßPLATZ / SCHLOßBRÜCKE / LUSTGARTEN,1,52.51858989999999,13.399687500000027
AXEL-SPRINGER-STR. / SCHÜTZENSTR.,1,52.5088173,13.394067899999982
BODESTR.,1,52.5196944,13.398488199999974
EBERTSTR. / POTSDAMER PLATZ / LEIPZIGER PLATZ,5,52.5096267,13.378007900000057
KÖLLNISCHER FISCHMARKT / BREITE STR. / GERTRAUDENSTR. / MÜHLENDAMM / 
FISCHERINSE,1,52.5306438,13.38306829999999
FRANZÖSISCHE STR. / MAUERSTR.,1,52.5110579,13.386781100000007
NIEDERLAGSTR. / WERDERSCHER MARKT,1,52.5154367,13.398041199999966
BERNHARD-WEIß-STR. / ALEXANDERSTR.,1,52.5196362,13.416558399999985
STRESEMANNSTR. / POTSDAMER PLATZ,1,52.50872,13.377230000000054
DOROTHEA-SCHLEGEL-PLATZ / REICHSTAGUFER / NEUSTÄDTISCHE KIRCHSTR.,2,52.518545,13.385492900000031
GLINKASTR. / JÄGERSTR.,1,52.5139983,13.391740600000048
AXEL-SPRINGER-STR. / KRAUSENSTR.,1,52.50969749999999,13.394226900000035
MOLLSTR. / PLATZ DER VEREINTEN NATIONEN,2,52.52311290000001,13.429935800000067
DOROTHEENSTR. / NEUSTÄDTISCHE KIRCHSTR.,1,52.518545,13.385492900000031
KRONENSTR.,1,52.511328,13.391704900000036
KÖTHENER STR. / STRESEMANNSTR.,1,52.5074683,13.378422699999987
LIEBKNECHTBRÜCKE (SPREE),1,52.5306438,13.38306829999999
ZIETENPLATZ / MOHRENSTR.,1,52.5120957,13.389921400000048
SCHILLINGSTR.,1,52.5183125,13.42089759999999
SCHEIDEMANNSTR. / DOROTHEENSTR. / EBERTSTR. / FRIEDRICH-EBERT-PLATZ,2,52.5186089,13.376953500000013
WILHELMSTR. / UNTER DEN LINDEN,2,52.5171845,13.38908850000007
EBERTSTR.,1,52.5139165,13.37723619999997
PARISER PLATZ,1,52.5164249,13.379512699999964
WILHELMSTR. / BEHRENSTR.,1,52.514508,13.381830000000036
EBERTSTR. / IN DEN MINISTERGÄRTEN,1,52.5123535,13.379448499999967
EBERTSTR. / HANNAH-ARENDT-STR.,1,52.5134304,13.379301800000007
